"stop_id","stop_code","stop_name","stop_lon","stop_lat"
"260000401","leidmtwj","Blue Dog",-0.6840474,52.7862037
"260000706","leidmwmp","The Rock",-1.6705833,52.7872287
"260001718","leidpdpg","Meadow Way",-0.8767222,52.7578775
"260001602","leidpdgd","Nursery Lane",-0.9196899,52.8066848
"260000910","leidpadm","Park Gates",-1.272719,52.9286389
"260000707","leidmwmt","School Lane",-0.760754,52.8536898
"260000708","leidmwmw","Saltby Crossroads",-0.7555346,52.8489807
"260000709","leidmwpa","Saltby Crossroads",-0.7555346,52.8489807
"260000711","leidmwpg","The Nook",-0.7626249,52.8525009
"260000306","leidmtpt","Hecadek Lane",-0.9698005,52.8274941
"260000307","leidmtpw","Hecadek Lane",-0.9698005,52.8274941
"260000410","leidmwap","Timber Hill",-0.6784447,52.7876521
"260000412","leidmwaw","Old Manor Farm",-0.679622,52.786819
"260000903","leidmwtj","Woodbine Farm",-0.8283083,52.7618751
"260000904","leidmwtm","Woodbine Farm",-0.8283083,52.7618751
"260001407","leidpawg","Ragdale Hall",-1.032064,52.773286
"260001408","leidpawj","Hoby Road",-1.0195469,52.7714616
"260001409","leidpawm","Hoby Road",-1.0195469,52.7714616
"260001604","leidpdgm","Nursery Lane",-0.9196899,52.8066848
"260000T11","leiwtwtm","Wards End Tour",-1.2077576,52.7688963
"260000T12","leiwtwtj","Great Central Railway",-1.1958446,52.7686597
"260000T13","leiwtwtg","Great Central Railway",-1.1876924,52.7401947
"260000T15","leiwtwta","Tour Bus Stop",-1.17397,52.6971165
"260000T16","leiwtwpw","Bradgate Park",-1.2037543,52.6882792
"260000T17","leiwtwpt","Bradgate Tour",-1.2276457,52.6826401
"260000T18","leiwtwpm","Hunts Hill Tour",-1.2271238,52.7002403
"260000T19","leiwtwpj","Beacon Hill tour",-1.2426996,52.7273397
"260001406","leidpawd","Ragdale Hall",-1.032064,52.773286
"260001412","leidpdad","Gadesby Lane",-0.95756,52.736712
"260001413","leidpdag","Gadesby Lane",-0.95756,52.736712
"260001605","leidpdgp","Main Street",-0.9087309,52.8052193
"260000905","leidmwtp","St Mary's Church",-0.840426,52.76259
"260000907","leidpada","Park Gates",-1.272719,52.9286389
"260000700","leidmwjt","Main Street",-0.7824282,52.8947462
"260001411","leidpawt","Agricultural College",-1.0069404,52.737401
"260002608","leidpmtw","St Francis Primary School",-0.8897416,52.7597168
"260002015","leidpjtg","Alpine Cottages",-0.8332227,52.7108352
"260002104","leidpjwa","The Green",-0.733418,52.810363
"260002603","leidpmtd","Kings Road",-0.8781179,52.7685923
"260002504","leidpmpm","Wymondham",1.115305,52.569354
"260002108","leidpjwm","Church",-0.737921,52.829357
"260002109","leidpjwp","Bus Depot",-0.738244,52.826675
"260002110","leidpjwt","Bus Depot",-0.738244,52.826675
"260002113","leidpmaj","Back Street",-0.7381407,52.8267859
"260002114","leidpmam","Back Street",-0.7381407,52.8267859
"260002605","leidpmtj","John Ferneley High School Grounds",-0.8880841,52.7823968
"260002107","leidpjwj","Church",-0.737921,52.829357
"260001796","leidpjda","Limes Avenue",-0.8777181,52.7685904
"260001798","leidpjdj","Thames Drive",-0.8942911,52.7561415
"260002014","leidpjtd","Alpine Cottages",-0.8332227,52.7108352
"260001790","leidpjaj","West Avenue",-0.9027671,52.7687514
"260001785","leidpgwm","Queensway",-0.8897784,52.7508944
"260001757","leidpgjw","Morley Close",-0.8995447,52.7723624
"260002201","leidpmda","Blacksmith End",-0.8528318,52.8737258
"260002203","leidpmdj","City Road",-0.8591449,52.8727547
"260001905","leidpjmd","King Arms",-0.8707318,52.8103347
"260001784","leidpgwj","Queensway",-0.8897784,52.7508944
"260003232A","leimajpt","Meridian Leisure Park",-1.1873107,52.6132093
"260003258","leidpwpd","Emerson",-1.1899714,52.6050112
"260003232","leidpwdm","Meridian Leisure Park",-1.1873107,52.6132093
"260003227","leidpwat","Braunstone Crossroads",-1.2016835,52.6270605
"260003263","leidpwpw","Bidford News",-1.1831519,52.620037
"260003203","leidptmg","Emerson",-1.1899714,52.6050112
"260003738","leidtdgj","Next HQ",-1.2200477,52.5956529
"260003739","leidtdgm","Next",-1.2200477,52.5956529
"260004219","leidtgpm","Desford Crossroads",-1.255577,52.612684
"260004220","leidtgpt","Desford Crossroads",-1.255577,52.612684
"260003948","leidtgjg","Whitesand Close",-1.1955506,52.649492
"260003949","leidtgjm","Manor Farm Way",-1.2034435,52.6430836
"260004638","leidtjtp","District Council Offices",-1.2055256,52.5732599
"260004314","leidtgwm","Meynells Gorse",-1.2019669,52.6282235
"260007217","leiamdtm","High Street",-1.204273,52.7707633
"260008301","leidwjdj","Green Lane",-1.08813,52.752294
"260009118","leidwptp","Northdown Drive",-1.0950984,52.671806
"260010409","leimamtm","Battledown Close",-1.3395195,52.5586364
"260010627","leijapaw","St Peter's School",-1.3031898,52.5790686
"260010636","leijapgd","Stoneycroft Road",-1.3198342,52.5699097
"260010403","leijamja","Preston Road",-1.3395195,52.5586364
"260010366A","leijajtw","Bus Station",-1.374747,52.538948
"260010414","leimawpj","William Iliffe Street",-1.389029,52.5346571
"260010652","leijapmg","Park Close",-1.3154908,52.5780068
"260010647","leijapjt","The Plough",-1.3662445,52.5442823
"260010915","leijatjg","Andrew Close",-1.416124,52.5706763
"260011009","leijdagm","Terminus",-1.426786,52.625595
"260011136","leijdgad","School",-1.380347,52.6620864
"260012301","leijdjwp","Church Road",-1.5212728,52.5736956
"260012204","leijdjtd","Unicorn PH",-1.5464851,52.6322342
"260011905","leijdjda","Preston Close",-1.3116807,52.6877758
"260011803","leijdgwd","Temple Hall Farm",-1.4369816,52.6252886
"260011502","leijdgdt","Peckleton Common",-1.293717,52.6076946
"260012304","leijdmag","Church Lane",-1.5197957,52.5927445
"260012208","leijdjtp","Prep School",-1.5030237,52.6399956
"260012209","leijdjtw","The Green",-1.4932387,52.6346994
"260011711","leijdgtm","Hall Lane",-1.1523366,52.6054527
"260011140","leijdgap","Navy Close",-1.380279,52.5323282
"260011200","leijdgaw","Vero's Lane",-1.3862511,52.6616396
"260011201","leijdgda","Vero's Lane",-1.3862511,52.6616396
"260012100","leijdjpd","Sibson Lane",-1.4439754,52.6010703
"260012106","leimapjw","Mallard Drive",-1.3925552,52.5335441
"260012302","leijdjwt","Church Road",-1.5212728,52.5736956
"260011504","leijdgja","Peckleton Road",-1.328573,52.601477
"260011505","leijdgjd","Church Road",-1.3065808,52.6032149
"260011620","leijdgpa","Cottage Close",-1.2409967,52.6499206
"260012211","leijdjwd","Church",-1.5518617,52.6323239
"260012212","leijdjwg","Church",-1.5518617,52.6323239
"260011904","leijdjaw","Preston Close",-1.3116807,52.6877758
"260012203","leijdjta","Unicorn",-1.5464851,52.6322342
"260016112","leidmpja","Baldwin Avenue",-1.1272801,52.5783884
"260016050","leijgtjt","Park Close",-1.3154908,52.5780068
"260016114","leijgtma","Station Street Surgery",-1.1297216,52.5804117
"260016028","leijgtjg","Aylestone Drive",-1.145267,52.6018136
"260016029","leijgtjm","Harcourt Road",-1.1000563,52.5800882
"260016314","leijgtwj","Hursley Close",-1.0653342,52.5957312
"260016305","leijgtpw","Beaufort Way",-1.0582428,52.5912731
"260016306","leijgtwa","Poachers Place",-1.0598353,52.5915957
"260016326","leijgwam","Covert Close",-1.0678983,52.6019672
"260016284","leijgtpd","Mere Road",-1.0941562,52.5873762
"260016038","leidmgjt","Homestead Drive",-1.100903,52.5779791
"260016111","leidmpgw","Lansdowne Grove",-1.1273074,52.5779009
"260016203","leijgtmt","Park Crescent",-1.069217,52.5909734
"260016312","leijgtwg","Ludlow Close",-1.064337,52.5938797
"260015808","leijgtdp","Primary School",-1.3882564,52.7632439
"260016336","leijgwdp","Launde Road",-1.0680453,52.6028454
"260016316","leijgtwm","Derwent Walk",-1.0642458,52.5973071
"260016317","leijgtwp","The Blues",-1.0625857,52.5996963
"260016320","leijgtwt","Manor High School",-1.0610577,52.6030025
"260016321","leijgwad","Copse Close",-1.0661381,52.603631
"260016412","leiamtpw","Long Street",-1.1070256,52.584056
"260016116","leijgtmd","Lansdowne Grove",-1.1273074,52.5779009
"260016333","leijgwdg","Woodfield Road",-1.072432,52.6032204
"260016334","leijgwdj","Woodfield Road",-1.072432,52.6032204
"260016335","leijgwdm","Launde Road",-1.0680453,52.6028454
"260016716","leijmagm","Leicester Racecourse Park-and-Ride",-1.0974367,52.6037858
"260018003","leijmdag","Rose Cottage",-1.1135863,52.50361
"260018004","leijmdaj","Rose Cottage",-1.1135863,52.50361
"260016817","leijmajm","Hayes Road",-1.0985373,52.5881889
"260016519","leijgwjd","Marstown Avenue",-1.1360932,52.5828066
"260016520","leijgwjg","Marstown Avenue",-1.1360932,52.5828066
"260016521","leijgwjm","Glamorgan Avenue",-1.1340491,52.5845988
"260016522","leijgwjp","Glamorgan Avenue",-1.1340491,52.5845988
"260018101","leijmdaw","Lovelace Close",-1.0020831,52.5746671
"260018567","leijmdjp","Rail Station",-0.8858618,52.761125
"260018569","leijmdjt","Rail Station",-1.1454733,52.7494721
"260018571","leijmdjw","Rail Station",-0.795093,52.9446343
"260016823","leijmajt","Mere Road",-1.0941562,52.5873762
"260016517","leijgwgw","Anglesey Road",-1.1330599,52.5857543
"260016625","leijmadm","Farm World",-1.0899429,52.6043741
"260016523","leijgwjt","Norfolk Road",-1.1341028,52.5885063
"260016524","leijgwjw","Norfolk Road",-1.1341028,52.5885063
"260022202","leijmptw","School",-1.0906438,52.6769061
"260022203","leijmpwa","School",-1.0906438,52.6769061
"260020201","leijmgtp","Cross Bank",-0.7492939,52.5275881
"260021904","leijmpta","Leire Lane",-1.2241861,52.5048249
"260021905","leijmptd","Poplar Farm",-1.224379,52.504223
"260020900","leijmjtg","Primary School",-1.0563366,52.4516356
"260018579","leijmdmg","Sheepy Road",-1.5472421,52.5899604
"260018587","leijmdmw","Rail Station",-1.1349794,52.5823585
"260020316","leijmjdj","London Road",-1.0349883,52.5717939
"260020000","leijmgpa","Main Road",-0.892602,52.5787509
"260018581","leijmdmj","Rail Station",-1.2032463,52.5713017
"260018583","leijmdmp","Rail Station",-1.1094964,52.731323
"260020315","leijmjdg","London Road",-1.0713512,52.5949506
"260020801","leijmjpj","Main Street",-0.980783,52.6594382
"260020802","leijmjpm","Main Street",-0.980783,52.6594382
"260020106","leijmgta","Upper Green Place",-0.9114564,52.4928168
"260023000","leijmwpm","North Street",-1.0301898,52.5214109
"260023400","leijpadg","Brookhill Farm",-1.1262261,52.5288329
"260023401","leijpadj","Brookhill Farm",-1.1262261,52.5288329
"260023502","leijpadt","Beech Tree Cottage",-1.1346371,52.4982591
"260023503","leijpadw","Beech Tree Cottage",-1.1346371,52.4982591
"260022670","leimamgp","The Square",-0.9208745,52.477563
"260023806","leijpajd","Thurnby Halls of Residence",-1.1396424,52.6298007
"260022703","leijmwmt","Village Hall",-0.8231565,52.5287611
"260022702","leijmwmp","Village Hall",-0.8231565,52.5287611
"260070054","leijwdap","Winster Crescent",-0.8946037,52.7577901
"260025220","leijpdmt","Station Road",-1.0472887,52.6318739
"260025500","leijpdtm","Bulls Head",-0.9472646,52.5466945
"260025501","leijpdtp","Bulls Head",-0.9472646,52.5466945
"260025700","leijpgad","Weston Road",-0.8726348,52.5251163
"260025701","leijpgag","Weston Road",-0.8726348,52.5251163
"260026000","leijpgam","Manor Farm",-1.1522268,52.527391
"260025603","leijpdwt","Ivydales Garage",-1.2467679,52.4863293
"260070143","leijwgpm","West Street",-1.3107457,52.5773016
"260070099","leijwdwm","Garfit Road",-1.2295919,52.6349701
"260070100","leijwdwp","The Keep",-1.2333582,52.6345873
"260070042","leijwatw","Torrance Drive",-0.8841693,52.7793046
"260070043","leijwawa","Lynton Road",-0.8998323,52.7786262
"260070036","leijwata","Twinlakes Park",-0.8638523,52.7823532
"260070080","leijwdmw","Whitworth Avenue",-1.3395195,52.5586364
"260070116","leijwgja","Ferndale Road",-1.0918909,52.6748212
"260070107","leijwgat","Larch Grove",-1.1994951,52.6233698
"260070108","leijwgaw","Larch Grove",-1.1994951,52.6233698
"260070109","leijwgda","St Mary's Avenue",-1.1993465,52.6238143
"260070110","leijwgdg","St Mary's Avenue",-1.1993465,52.6238143
"260070044","leijwawd","Palmerston Road",-0.8989019,52.7776586
"260070047","leijwawm","Grantwood Road",-0.868891,52.7746089
"260070048","leijwawp","Brocklehurst Road",-0.868891,52.7746089
"260070050","leijwdad","Twinlakes Park",-0.8639004,52.7823503
"260026001","leijpgap","Manor Farm",-1.1522268,52.527391
"260026100","leijpgat","The Old Farm",-1.0582963,52.5675453
"260026101","leijpgaw","The Old Farm",-1.0582963,52.5675453
"260038039","leidmgwd","ASDA",-1.0862068,52.6033729
"2600612",NA,"Boyers Orchard",-0.8888533,52.8727411
"2600613",NA,"Boyers Orchard",-0.8888533,52.8727411
"260080006","leijwpwm","The Square",-1.280484,52.536472
"260080008","leijwpwt","Battlefield Line Railway",-1.4413889,52.6555556
"260080020","leijwtdp","Marlow Court",-0.821198,52.5333928
"260080022","leijwtdw","Forest House Lane",-1.2185286,52.6182724
"260080078","leijwtpt","Leas Close",-1.040393,52.6357548
"260080090","leijwtwt","Hoby Road",-1.0410049,52.7369775
"260080059","leijwtmg","Shortridge Lane",-1.2118503,52.5875755
"260080062","leijwtmp","Church Farm",-0.9761829,52.8559589
"260080091","leimadad","Hoby Road",-1.0410049,52.7369775
"260080092","leimadag","Queensway",-0.9764801,52.8138882
"260080093","leimadaj","Queensway",-0.9764801,52.8138882
"260070152","leijwgtw","Hill Top",-1.3098532,52.5802786
"260070263","leijwpap","Freeboard Road",-1.1811195,52.6077836
"260070264","leijwpat","Freeboard Road",-1.1811195,52.6077836
"260070290","leijwpmj","Pipistrelle Way",-1.0518175,52.5926269
"260070235","leijwmjt","Charnwood Drive",-0.9003424,52.7702963
"260070236","leijwmjw","Brightside Avenue",-0.8993425,52.7675582
"260070238","leidjgmg","Bassett Street",-1.1310639,52.579307
"260070239","leijwmpd","Grasmere Road",-1.0910721,52.5876563
"260070240","leijwmpg","Grasmere Road",-1.0910721,52.5876563
"260070241","leijwmpj","Estoril Avenue",-1.0937053,52.5895015
"260070242","leijwmpm","Estoril Avenue",-1.0937053,52.5895015
"260070153","leijwgwa","Earl Street",-1.304438,52.5767928
"260070262","leijwpam","Woodcote Road",-1.1823235,52.6071219
"260080097","leimadat","Little Covert Farm",-0.7932404,52.9578027
"260080098","leimadaw","Little Covert Farm",-0.7932404,52.9578027
"260080102","leimadgm","Chadwell Turn",-1.1397592,52.6368778
"260080015","leijwtaw","Hercules Inn",-1.3853496,52.5999878
"260080011","leijwtaj","Horsepool Grange",-1.305849,52.686431
"260080012","leijwtam","Hercules Inn",-1.3853496,52.5999878
"260080003","leijwpwg","North Kilworth Road",-1.0987296,52.4422239
"260080004","leijwpwj","North Kilworth Road",-1.1167585,52.4619247
"260070216","leijwmda","Weaver Road",-1.308176,52.5751993
"260080013","leijwtap","Chequers",-1.1637397,52.4097824
"260070218","leijwmdj","Keats Close",-1.3109783,52.5795862
"260070220","leijwmdp","Foxon Way",-1.1931557,52.6162962
"260070222","leijwmdw","Nursery Close",-1.1008319,52.671327
"260070257","leijwmwp","Eastfield Avenue",-0.8854436,52.7700788
"260070261","leijwpaj","Woodcote Road",-1.1823235,52.6071219
"260070217","leijwmdg","Meadowcourt Road",-1.3121438,52.5722113
"260070281","leijwpjd","Harecroft Crescent",-1.27862,52.5396583
"260080014","leijwtat","Chequers",-1.1637397,52.4097824
"260070249","leijwmtm","Garden Lane",-0.8996547,52.7745717
"260070250","leijwmtp","Alvaston Road",-0.900222,52.7760797
"260070251","leijwmtw","Palmerston Road",-0.8998663,52.7776686
"260070252","leijwmwa","Lynton Road",-0.8998323,52.7786262
"260070253","leijwmwd","Coniston Road",-0.9008582,52.7798112
"260080105","leimadgw","Sports Arena",-1.1976808,52.7643287
"260080302","leimagtm","Atherstone Road",-1.4785759,52.6048311
"2600LOGHBRO",NA,"Loughborough Rail Station",-1.1959299,52.7790165
"260080165","leimadtm","Wardens Walk",-1.2008601,52.6240302
"260080166","leimadtp","Wardens Walk",-1.2008601,52.6240302
"260080235","leimagma","Shoulder of Mutton",-0.903751,52.491809
"2600LOUG0",NA,"Loughborough Rail Station",-1.1959299,52.7790165
"2600ZZBFSHA","leimatag","Shakerstone Rail Station (Battlefield Line)",-1.4413889,52.6555556
"2600ZZBFSHE","leimataj","Shenton Rail Station (Battlefield Line)",-1.4151512,52.5997078
"2600ZZGCLBC","leimatpd","Great Central Railway",-1.1958446,52.7686597
"260080126","leimadma","Weir Road",-1.0331428,52.5218998
"260080127","leimadmd","Cedar Drive",-0.8904543,52.7721216
"2600ZZGCQWH","leimatap","Quorn & Woodhourse (Great Central Railway)",-87.635209,41.897188
"2600ZZGCRTH","leimatam","Rothley (Great Central Railway)",-1.159469,52.7049879
"260080122","leimadjp","Salisbury Arms",-2.0616046,52.5033063
"260080123","leimadjt","Salisbury Arms",-2.0616046,52.5033063
"260080253","leimagmt","Chapel Lane",-0.9876429,52.8285276
"260080171","leimadwg","Balmoral Road",-0.8883333,52.7751046
"260080183","leimagap","St Martins School",-1.4003694,52.5716839
"268060T04","rtladpgp","Stand 2",-0.7256925,52.6689004
"268060T05","rtladpgt","Sykes Lane",-0.6071705,52.6667611
"268060T06","rtladpgw","Sewage Works",-0.5970475,52.6672407
"2680OAKHAM","rtladjpj","Oakham Rail Station",-0.7341909,52.6722748
"268060T01","rtladpgd","Station Road",-0.6078019,52.6149428
"268060T02","rtladpgj","Rutland Falconry Centre",-0.6631865,52.6827914
"269018589",NA,"Rail Station",-1.1251614,52.6312365
"269030021","lecdjamw","The New Joiners",-1.1399458,52.6397927
"269000T01","lecdapwd","Town Hall Square",-1.1322094,52.6336219
"269030000","lecdapwg","High Street H14",-1.1361377,52.6356157
"269030002","lecdapwm","High Street H16",-1.1361377,52.6356157
"269032013","lecdatgp","The Riding",-1.1615102,52.6742451
"269030011A",NA,"St Margaret's Bus Station",-1.1338583,52.6395682
"269030012","lecdatdg","Mosh Nightclub",-1.1396807,52.6351412
"269030062","lecdgajt","Wiltshire Road",-1.146658,52.6557002
"269030063","lecdgajw","Wiltshire Road",-1.146658,52.6557002
"269030003","lecdapwp","High Street H17",-1.1361377,52.6356157
"269030005","lecdatad","Haymarket",-1.1326387,52.6371569
"269030006","lecdatag","Haymarket",-1.1326387,52.6371569
"269031004","lecdawgd","Park Hill Drive",-1.1482171,52.6081791
"269030101","lecdawmp","Haymarket",-1.1314622,52.6366797
"269030106","lecdawpg","Haymarket",-1.1314622,52.6366797
"269030107","lecdawpj","Haymarket",-1.1314622,52.6366797
"269030108","lecdawpm","Haymarket",-1.1326387,52.6371569
"269030109","lecdawpt","Haymarket",-1.1326387,52.6371569
"269030122","lecdptam","Church Gate",-1.1345972,52.6378169
"269030123","lecdptap","Sandacre Street",-1.1330317,52.6386603
"269030127","lecdptjt","Church Gate",-1.1345972,52.6378169
"269030046","lecdmwjp","Somerset Avenue",-1.1442531,52.6524019
"269030066","lecdgamg","St Peters Lane",-1.1352745,52.6375811
"269034007","lecdagjd","Dover Street",-1.1285065,52.6327496
"269034008","lecdagjg","Grand Hotel",-1.1298265,52.6331318
"269034009","lecdagjm","Granby Street",-1.1309846,52.6342771
"269034014","lecdagjw","Stamford Street",-1.131182,52.6328672
"269032092","lecdgdta","Glenfield Hospital Water Tank",-1.1794703,52.6554547
"269032102","lecdmgpj","Lime Grove",-1.1570723,52.6656858
"269032105","lecdmgpw","Water Centre",-1.1711812,52.657502
"269032101","lecdmgpg","Lime Grove",-1.1570723,52.6656858
"269032091","lecdgdpw","Glenfield Hospital",-1.1794703,52.6554547
"269033041","lecdjgjt","Belgrave Hall",-1.1250978,52.6594667
"269034063","lecdjwjt","Countinghouse Road",-0.0851096,51.513324
"269032038","lecdawap","Churchward Avenue",-1.1507528,52.6643562
"269034004","lecdagdt","High Street H10",-1.1361377,52.6356157
"269034005","lecdagdw","High Street",-1.1361377,52.6356157
"269034001","lecdagdj","Eastgates H7",-1.1334563,52.636032
"269034002","lecdagdm","High Street H8",-1.1361377,52.6356157
"269034003","lecdagdp","High Street H9",-1.1361377,52.6356157
"269039010","lecdgmat","Davenport Road",-1.0643164,52.6306869
"269039011","lecdgmaw","Davenport Road",-1.0643164,52.6306869
"269034076","lecdpdjp","Regent Road",-0.1405909,51.5131276
"269034077","lecdpdjt","Regent Road",-0.1405909,51.5131276
"269034078","lecdpdjw","Regent Road",-0.1405909,51.5131276
"269034079","lecdpdma","Regent Road",-0.1405909,51.5131276
"269034096","lecdjtgw","Walkers Stadium",-1.1421895,52.6203662
"269034098","lecdjtjd","Eastern Boulevard",-1.1423986,52.6272864
"269034103","lecdjtjp","St Nicholas Circle",-1.1410064,52.6340396
"269034107","lecdpmtm","Town Hall Square P3",-1.1322094,52.6336219
"269035006","lecdjtmt","St Barnabas Road",-1.0984341,52.6404059
"269035029","lecdpgat","Police Station",-1.1040166,52.6347708
"269036049","lecdamtm","General Hospital",-1.0809209,52.6299128
"269038020","lecdpawt","Shanklin Drive",-1.1026003,52.6050254
"269038021","lecdpdad","Shanklin Drive",-1.1026003,52.6050254
"269041037","lecdmgjm","Hamilton Community College",-1.0528354,52.6520297
"269041051","lecdmpdm","St Joseph's School",-1.061205,52.6454432
"269041052","lecdmpdp","Elstree Avenue",-1.0545104,52.6467939
"269041053","lecdmpdt","Elstree Avenue",-1.0545104,52.6467939
"269041054","lecdmpdw","St Joseph's School",-1.061205,52.6454432
"269039020","lecdgmgd","Downing Drive",-1.0585384,52.6267137
"269039064","lecdgtdj","Judgemeadow College Grounds",-1.063646,52.6215427
"269039065","lecdgtdm","St Paul's School",-1.0689567,52.6286601
"269041066","lecdmpjp","Selby Avenue",-1.0543485,52.6510126
"269043003","lecdgatg","Greengate Lane",-1.1262619,52.6809585
"269043026","lecdgpmp","Collett Road",-1.1512274,52.6723188
"269043027","lecdgpmt","Churchward Avenue",-1.1507528,52.6643562
"269043002","lecdgatd","Greengate Lane",-1.1262619,52.6809585
"269051006","lecdjajd","Bankart Avenue",-1.0843506,52.6016955
"269051034","lecdgwaw","Charles Frears Campus",-1.1069446,52.6203843
"269051035","lecdgwda","Charles Frears Campus",-1.1069446,52.6203843
"269057081A","lecdjdjp","Haymarket Bus Station",-1.131502,52.638222
"269055008","lecdgtwt","Westleigh Road",-1.153158,52.6241283
"269057010A","lecdptgd","Charles Street",-1.1298009,52.6353109
"269057010B","lecdpmtp","Charles Street (Stand not supplied)",-1.1297622,52.6356312
"269057033A","lecdgjtj","Humberstone Gate",-1.1298283,52.636405
"269057044A","lecdjtpt","Railway Station",-1.1251284,52.6311888
"269070260","lecdajgw","Midway Road",-1.0993783,52.6186751
"269080131","lecdajmt","De Montfort Street",-1.1251376,52.6277065
"269080264","lecdadwa","Riverside College",-1.164697,52.6103745
"269080300","lecdadwg","St Nicholas Circle",-1.1408003,52.6346946
"269080133","lecdajmw","St Paul's School",-1.0689567,52.6286601
"269080135","lecdajpa","Judgemeadow School Grounds",-1.063646,52.6215427
"269080181","lecdajpd","St Patrick School",-1.1148175,52.6539472
"269080205","lecdajpj","Maidenhead Avenue",-0.7219,51.522414
"269070161","lecdmjta","Camville Road",-1.1768662,52.6299574
"269070163","lecdmjtg","Folville Rise",-1.1664511,52.6213231
"269070158","lecdmjpm","Camville Road",-1.1768662,52.6299574
"2690ZZGCLCN","lecdptpd","Great Central Railway",-1.1333349,52.6677671
"269070193","lecdajgd","Blue Gates Road",-1.1719082,52.6689322
"269070194","lecdajgj","Blue Gates Road",-1.1719082,52.6689322
"269070259","lecdajgt","Byway Road",-1.0987014,52.6174079
"9300WWC1",NA,"Woolwich Ferry North Pier",0.061063,51.49776
"9300WWS1",NA,"Woolwich Ferry South Pier",0.06233,51.49517
"9300DNU",NA,"Dunoon Ferry Terminal",-4.92282706457053,55.94568981896
"9300GUR",NA,"Gourock Ferry Terminal",-4.81325524560526,55.9581178986552
"9300RHU",NA,"Rhubodach Bute Ferry Terminal",-5.158897,55.92069
"9300COT",NA,"Colintraive Ferry Terminal",-5.152758,55.92336
"9300CUM",NA,"Cumbrae Ferry Terminal",-4.898246,55.78671
"9300LGS",NA,"Largs Ferry Terminal",-4.87069912505074,55.7948156040759
"9300RAY",NA,"Rothesay Ferry Terminal",-5.05435045136916,55.8384539829387
"9300WMB",NA,"Wemyss Bay Ferry Terminal",-4.89084398610547,55.8757498134179
"9300IOA",NA,"Iona Ferry Terminal",-6.39126572701157,56.3303851715245
"9300FIO",NA,"Fionnphort Mull Ferry Terminal",-6.37033596281263,56.3259753429946
"9300KEN",NA,"Kennacraig Ferry Terminal",-5.483421,55.80671
"9300PLN",NA,"Port Ellen Islay Ferry Terminal",-6.189824,55.62783
"9300PAK",NA,"Port Askaig Islay Ferry Terminal",-6.105102,55.84771
"9300OBA",NA,"Oban Ferry Terminal",-5.477257,56.4116
"9300CSY",NA,"Colonsay Ferry Terminal",-6.18652566693726,56.0685967451264
"9300AMH",NA,"Gigha Ferry Terminal",-5.73317993992568,55.6778928874537
"9300TYL",NA,"Tayinloan Ferry Terminal",-5.67077000899243,55.6575963159643
"9300KWL",NA,"Kirkwall Orkney Ferry Terminal",-2.96079432631842,58.9864569518588
"9300PWY",NA,"Papa Westray Orkney Ferry Terminal",-2.891551,59.32685
"9300EDY",NA,"Eday Orkney Ferry Terminal",-2.747384,59.15553
"9300STY",NA,"Stronsay Orkney Ferry Terminal",-2.597892,59.14262
"9300NDY",NA,"Sanday Orkney Ferry Terminal",-2.696499,59.19057
"9300RAP",NA,"Rapness Orkney Ferry Terminal",-2.858441,59.2487
"9300BRB",NA,"Brodick Isle of Arran Ferry Terminal",-5.13656693093325,55.5767411514657
"9300ARD",NA,"Ardrossan Ferry Terminal",-4.82329100939831,55.6400322879983
"9300GUT",NA,"Gutcher Shetland Ferry Terminal",-0.99636768982421,60.6730927835351
"9300BMT",NA,"Belmont (Unst Shetland) Ferry Terminal",-0.966834394667,60.683132847929
"9300ODD",NA,"Oddsta Shetland Ferry Terminal",-0.930991,60.6293828218073
"9300MCP",NA,"Gourock McInroy's Point Ferry Terminal",-4.85271820279763,55.9511777130255
"9300HUN",NA,"Dunoon Hunters Quay Ferry Terminal",-4.90947391663284,55.9704007371739
"9300ULS",NA,"Ulsta Shetland Ferry Terminal",-1.15849104168358,60.4963095299199
"9300TOF",NA,"Toft Shetland Ferry Terminal",-1.20672774540232,60.4663883779354
"9300FIB",NA,"Fishnish Ferry Terminal",-5.80992016673432,56.5146434868125
"9300LHL",NA,"Lochaline Ferry Terminal",-5.77532463537016,56.5366623161705
"9300PAV",NA,"Portavadie Ferry Terminal",-5.316552,55.87651
"9300LCT",NA,"Tarbert (Loch Fyne) Ferry Terminal",-5.40380681712305,55.866045665837
"9300CNU",NA,"Craignure Mull Ferry Terminal",-5.706313,56.47076
"9300SYM",NA,"Whalsay Shetland Ferry Terminal",-1.028456,60.34186
"9300LAX",NA,"Laxo Shetland Ferry Terminal",-1.170299,60.35213
"9300OKF",NA,"Oban Kerrera Ferry",-5.510265,56.39706
"9300KER",NA,"Kerrera Ferry Landing",-5.51879,56.40001
"9300CRR",NA,"Nether Lochaber Ferry Terminal",-5.23552,56.72152
"9300ARG",NA,"Ardgour Ferry Terminal",-5.242677,56.72203
"9300RAA",NA,"Raasay Ferry Terminal",-6.08255021179005,57.3500144618025
"9300SCO",NA,"Sconser Isle Of Skye Ferry Terminal",-6.11111035635558,57.3140518727282
"9300LMA",NA,"Lochmaddy North Uist Ferry Terminal",-7.15818029852937,57.5967121693991
"9300UIG",NA,"Uig Skye Ferry Terminal",-6.376336210666,57.5863525023657
"9300TAB",NA,"Tarbert (Harris) Ferry Terminal",-6.7999168377619,57.8972776410173
"9300MLG",NA,"Mallaig (CalMac) Ferry Terminal",-5.828069,57.00684
"9300PTM",NA,"Muck Ferry Terminal",-6.226905,56.83364
"9300GAL",NA,"Eigg Ferry Terminal",-6.129965,56.87723
"9300KLH",NA,"Rum Ferry Terminal",-6.264991,57.01086
"9300CAN",NA,"Canna Ferry Terminal",-6.490296,57.05617
"9300UFU",NA,"Ulva Ferry (Ulva) Ferry Landing",-6.15310730905174,56.4805418600912
"9300ULV",NA,"Ulva Ferry (Mull) Ferry Landing",-6.14979343635058,56.4814662157358
"9300EAI",NA,"Easdale Seil Ferry Landing",-5.651598,56.29359
"9300EAS",NA,"Easdale Island Ferry Landing",-5.65455,56.29301
"9300CUN",NA,"North Cuan Seil Ferry Terminal",-5.629387,56.26774
"9300LUI",NA,"South Cuan Luing Ferry Terminal",-5.633143,56.26646
"9300KLB",NA,"Kilchoan Ferry Terminal",-6.09476318737316,56.6887401163221
"9300TOB",NA,"Tobermory Mull Ferry Terminal",-6.063358,56.62332
"9300LBS",NA,"Lochboisdale South Uist Ferry Terminal",-7.30397,57.1522
"9300LEV",NA,"Leverburgh Harris Ferry Terminal",-7.025258,57.76654
"9300BNY",NA,"Berneray Ferry Terminal",-7.180422,57.7023
"9300MYF",NA,"Bressay Shetland Ferry Terminal",-1.123247,60.15706
"9300LRK",NA,"Lerwick Shetland Esplanade Ferry Terminal",-1.14308149305274,60.1556196875322
"9300TRE",NA,"Tiree Ferry Terminal",-6.798924,56.50833
"9300COL",NA,"Coll Ferry Terminal",-6.524241,56.61506
"9300CBA",NA,"Castlebay Barra Ferry Terminal",-7.488252,56.95385
"9300ARM",NA,"Armadale Ferry Terminal",-5.894743,57.0646
"9300LMR",NA,"Lismore Ferry Terminal",-5.492068,56.51116
"9300ERI",NA,"Eriskay Ferry Terminal",-7.308247,57.07093
"9300AHB",NA,"Aird Mhor Barra Ferry Terminal",-7.403322,57.00861
"9300ULL",NA,"Ullapool Ferry Terminal",-5.16010088547163,57.8948904154749
"9300STO",NA,"Stornoway Lewis Ferry Terminal",-6.38645079873231,58.207060130172
"9300KYL",NA,"Kylerhea Isle of Skye Ferry Terminal",-5.664357,57.22782
"9300GLE",NA,"Glenelg Isle of Skye Ferry Terminal",-5.65562,57.22915
"9300FEO",NA,"Feolin Jura Ferry Terminal",-6.090638,55.84698
"9300LCR",NA,"Lochranza Arran Ferry Terminal",-5.301985,55.70772
"9300CLB",NA,"Claonaig Ferry Terminal",-5.387875,55.75107
"9300ROU",NA,"Rousay Orkney Ferry Terminal",-2.986187,59.13034
"9300EGI",NA,"Egilsay Orkney Ferry Terminal",-2.942716,59.15579
"9300WYR",NA,"Wyre Orkney Ferry Terminal",-2.97249,59.12483
"9300TWL",NA,"Tingwall Orkney Ferry Terminal",-3.043453,59.08868
"9300HTN",NA,"Houton Orkney Ferry Terminal",-3.183882,58.9172
"9300FLH",NA,"Flotta Orkney Ferry Terminal",-3.128252,58.83809
"9300LYS",NA,"Lyness Orkney Ferry Terminal",-3.191594,58.83354
"9300LHP",NA,"Longhope Orkney Ferry Terminal",-3.207038,58.80044
"9300PRA",NA,"Port Ramsay Lismore Ferry Terminal",-5.428166,56.55974
"9300PAP",NA,"Port Appin Ferry Terminal",-5.414884,56.55327
"9300NRO",NA,"North Ronaldsay Orkney Ferry Terminal",-2.440939,59.35558
"9300SCR",NA,"Scrabster Ferry Terminal",-3.54742036984422,58.6123318363263
"9300SNS",NA,"Stromness Orkney Ferry Terminal",-3.29556690273832,58.9646209183722
"9300LHM",NA,"Lerwick Shetland Holmsgarth Ferry Terminal",-1.15915303678148,60.1625103718988
"9300ABA",NA,"Aberdeen Ferry Terminal",-2.09204203003716,57.1445848860067
"9300KWH",NA,"Kirkwall Orkney Hatston Ferry Terminal",-2.97473598947763,59.0000692015193
"9300CPB",NA,"Campbeltown Ferry Terminal",-5.60101803678148,55.4230902062084
"9300SMH",NA,"St Margarets Hope Ferry Terminal",-2.961715,58.83224
"9300GIL",NA,"Gills Bay Ferry Terminal",-3.161657,58.6392
"9300FOA",NA,"Foula Shetland Ferry Terminal",-2.048228,60.13365
"9300WLS",NA,"Walls Shetland Ferry Terminal",-1.568414,60.22378
"9300FIE",NA,"Fair Isle Shetland Ferry Terminal",-1.603502,59.53787
"9300SUM",NA,"Grutness Shetland Ferry Terminal",-1.2784678449121,59.8743607342615
"9300COM1",NA,"West Cowes Floating Bridge",-1.29252649530085,50.7580523022546
"9300COF1",NA,"East Cowes Floating Bridge",-1.29042506947263,50.7573570894257
"9300DVP1",NA,"Devonport Ferry Terminal",-4.18337241795983,50.3758053155613
"9300TPT1",NA,"Torpoint Ferry Terminal",-4.19312932631843,50.3752600931363
"9300BOD1",NA,"Bodinnick Ferry Landing",-4.630166,50.33969
"9300FCQ1",NA,"Fowey Custom House Quay Ferry Landing",-4.63327923845505,50.340508367317
"9300HVN1",NA,"Shell Bay Ferry Terminal",-1.94996984491211,50.6801110844652
"9300SWD1",NA,"Sandbanks Ferry Terminal",-1.94874167592968,50.6830867487304
"9300DNV1",NA,"Dartmouth Naval College Ferry Terminal",-3.57672088884379,50.3566165482725
"9300HOO1",NA,"Kingswear Hoodown Ferry Terminal",-3.57332422456052,50.3597790396229
"9300KGH1",NA,"Philleigh King Harry Ferry Landing",-5.02503287270116,50.2166929892723
"9300TCK1",NA,"Trelissick Ferry Landing",-5.02844138302059,50.2167838817588
"9300FSB1",NA,"Fishbourne IOW Ferry Terminal",-1.21398423993821,50.7338963820917
"9300POC1",NA,"Portsmouth IOW Car Ferry Terminal",-1.10619145136916,50.7928911481666
"9300COW1",NA,"East Cowes Ferry Terminal",-1.28986296659067,50.7588124091355
"9300SOV1",NA,"Southampton Vehicle Ferry Terminal",-1.406237,50.89562
"9300YMO1",NA,"Yarmouth IOW Ferry Terminal",-1.50058874540231,50.7062503750457
"9300LYM1",NA,"Lymington Pier Ferry Terminal",-1.52905708449121,50.7573895959097
"0100BRA16909","The Centre (HN)","bstpagd",-2.59700820743083,51.4542409819833
"1000DNWDA338","Slag Ln",NA,-2.7585,53.28577
"1400EB0250","Saint Anthony's Avenue  outside no. 78",NA,-0.441655067770601,51.746599149584
"1400LE0377","Western Rd  Outside Nightingales Residential Hom",NA,-0.423311992350867,51.8768974509188
"210021985000","Watford Girls Grammar School",NA,-0.397623479570657,51.6514709482369
"210021985200","Watford Boys Grammar School",NA,-0.414400349072748,51.6542157982002
"5610ANZ12810","Dublin Airport",NA,-6.24719543987539,53.4280615421875
"9100GSCD","GARSCADDEN Station",NA,-4.35974531917428,55.8874956165077
"9100GUNISLK","GUNNISLAKE Station",NA,-4.21953099048031,50.5166248139726
"9100HAMSTED","HAMSTEAD (BIRMINGHAM) Station",NA,-1.92886328457249,52.5310032909249
"9100HELMSDL","HELMSDALE Station",NA,-3.65912739533589,58.1177439343859
